{
  "id": "car-rentals",
  "lang": "es",
  "title": "Alquiler de Coches", 
  "icon": "car",
  "priority": 5,
  "source": "hertz.es",
  "last_updated": "2024-01-15T10:30:00Z",
  "cache_duration_hours": 48,
  "items": [
    {
      "name": "Hertz Mérida",
      "description": "Oficina en el centro de Mérida con amplia flota desde vehículos económicos hasta SUV. Atención en español e inglés.",
      "phone": "+34924317203",
      "address": "Avenida de Portugal, 15, 06800 Mérida",
      "link": "https://www.hertz.es/p/alquiler-de-coches/espana/merida",
      "rating": 4.2,
      "price_range": "Desde 25€/día económico",
      "img": "/img/hertz-merida.jpg",
      "opening_hours": "08:00-13:00, 16:00-19:00",
      "services": ["Flota variada", "GPS incluido", "Seguro completo", "Recogida aeropuerto"]
    },
    {
      "name": "Europcar Mérida", 
      "description": "Situada cerca de la estación de tren con buenos precios para alquileres de varios días. Ofertas especiales para turistas.",
      "phone": "+34924305842",
      "address": "Calle Cardero, 40, 06800 Mérida",
      "link": "https://www.europcar.es/",
      "rating": 4.0,
      "price_range": "Desde 22€/día económico",
      "img": "/img/europcar-merida.jpg",
      "opening_hours": "08:30-13:00, 16:30-19:30",
      "services": ["Precios competitivos", "Alquileres largos", "Vehículos nuevos", "Asistencia 24h"]
    },
    {
      "name": "Avis Badajoz (Aeropuerto)",
      "description": "Para recoger en el aeropuerto de Badajoz si llegas en vuelo. Necesario traslado previo desde Carrascalejo.",
      "phone": "+34924420734",
      "address": "Aeropuerto de Badajoz, 06195 Badajoz",
      "link": "https://www.avis.es/",
      "rating": 4.1,
      "price_range": "Desde 30€/día + traslado",
      "img": "/img/avis-badajoz.jpg",
      "opening_hours": "Según horarios vuelos",
      "services": ["Recogida aeropuerto", "Vehículos premium", "Entrega flexible"]
    },
    {
      "name": "Autocares Leda (Alternativa)",
      "description": "Autobuses regulares Mérida-Madrid-Barcelona si prefieres transporte público. Horarios frecuentes y precios económicos.",
      "phone": "+34924371616",
      "address": "Estación de Autobuses, Mérida",
      "link": "https://www.leda.es/",
      "rating": 3.8,
      "price_range": "Madrid: 20-35€ según horario",
      "img": "/img/leda-bus.jpg",
      "opening_hours": "06:00-22:00",
      "services": ["Transporte público", "Varias frecuencias", "Conexiones nacionales", "WiFi gratis"]
    }
  ]
}