{
  "id": "eat",
  "lang": "es",
  "title": "Dónde y qué comer cerca",
  "icon": "utensils",
  "priority": 4,
  "source": "turismomerida.org",
  "last_updated": "2024-01-15T10:30:00Z",
  "cache_duration_hours": 24,
  "items": [
    {
      "name": "Restaurante Rex Numitor",
      "description": "Cocina extremeña junto al Teatro Romano. Especialidad en carnes ibéricas y migas extremeñas tradicionales.",
      "phone": "+34924314261",
      "address": "Calle de José Ramón Mélida, 06800 Mérida",
      "link": "https://turismomerida.org/donde-comer/",
      "rating": 4.3,
      "price_range": "25-35€ por persona",
      "img": "/img/rex-numitor.jpg",
      "opening_hours": "13:00-16:00, 20:00-24:00",
      "specialties": ["Migas extremeñas", "Cordero asado", "Jamón ibérico"]
    },
    {
      "name": "Tabula Calda",
      "description": "Restaurante romano temático con ambiente histórico. Ideal para cenar tras visitar los monumentos romanos.",
      "phone": "+34924304512", 
      "address": "Calle Romero Leal, 11, 06800 Mérida",
      "link": "https://www.tabulacalda.com/",
      "rating": 4.5,
      "price_range": "30-40€ por persona",
      "img": "/img/tabula-calda.jpg",
      "opening_hours": "19:30-24:00 (solo cenas)",
      "specialties": ["Cocina romana", "Ambiente temático", "Vinos de la tierra"]
    },
    {
      "name": "Mesón El Asador",
      "description": "Asador tradicional con cordero y cochinillo al horno de leña. Ambiente familiar y precios moderados.",
      "phone": "+34924315028",
      "address": "Avenida de Extremadura, 6, 06800 Mérida", 
      "link": "https://turismomerida.org/donde-comer/",
      "rating": 4.2,
      "price_range": "20-30€ por persona",
      "img": "/img/el-asador.jpg",
      "opening_hours": "13:00-16:00, 20:00-23:30",
      "specialties": ["Cordero asado", "Cochinillo", "Parrilladas"]
    },
    {
      "name": "Casa Benito",
      "description": "Bar de tapas tradicional muy frecuentado por locales. Perfecto para almorzar económico y conocer el ambiente local.",
      "phone": "+34924300076",
      "address": "Calle San Francisco, 3, 06800 Mérida",
      "link": "https://turismomerida.org/donde-comer/",
      "rating": 4.4,
      "price_range": "10-15€ por persona",
      "img": "/img/casa-benito.jpg", 
      "opening_hours": "08:00-24:00",
      "specialties": ["Tapas tradicionales", "Raciones", "Desayunos"]
    }
  ]
}